[
  {
    "place_id": "ChIJDxv9LCip05ER8wqWzKB58Ns",
    "nombre": "Asteroide B612 Riobamba",
    "direccion": "Av. Antonio José de Sucre, Riobamba 060108, Ecuador",
    "provincia": "Chimborazo",
    "lat": -1.6544575,
    "lng": -78.6461406,
    "rating": 4.3,
    "website": null,
    "keyword_found": "librería"
  },
  {
    "place_id": "ChIJ_1dnMYcH05ERouvPc5NAoqQ",
    "nombre": "BAZAR LIBRERIA \"ANTONIS \"",
    "direccion": "88FR+CFQ, Ave Atahualpa, Riobamba, Ecuador",
    "provincia": "Chimborazo",
    "lat": -1.6764029,
    "lng": -78.65875559999999,
    "rating": 4.4,
    "website": null,
    "keyword_found": "librería infantil"
  },
  {
    "place_id": "ChIJ00fB-qsH05ERCvYBBxjVrk0",
    "nombre": "Bazar & Papeleria \"Anita\"",
    "direccion": "Colombia &, Riobamba 060104, Ecuador",
    "provincia": "Chimborazo",
    "lat": -1.6699773,
    "lng": -78.6588785,
    "rating": 5,
    "website": null,
    "keyword_found": "papelería"
  },
  {
    "place_id": "ChIJ81XMuz6p05ER4_NCBATP6Dk",
    "nombre": "Bazar y Papeleria Buena Nota",
    "direccion": "Nueva York 3660, Riobamba, Ecuador",
    "provincia": "Chimborazo",
    "lat": -1.6615425,
    "lng": -78.6525987,
    "rating": 5,
    "website": null,
    "keyword_found": "papelería"
  },
  {
    "place_id": "ChIJV1e37HGp05ERLwR19voaM5c",
    "nombre": "Bazar y Papelería Alexis",
    "direccion": "México 29-40 y, Riobamba 060104, Ecuador",
    "provincia": "Chimborazo",
    "lat": -1.6637749,
    "lng": -78.6488157,
    "rating": null,
    "website": null,
    "keyword_found": "papelería"
  },
  {
    "place_id": "ChIJkwsygT6p05ERIxQJrTzU-Gg",
    "nombre": "Bazar y Papelería NC",
    "direccion": "Febres Cordero 1643, Riobamba 060111, Ecuador",
    "provincia": "Chimborazo",
    "lat": -1.6714487,
    "lng": -78.6426489,
    "rating": 5,
    "website": null,
    "keyword_found": "papelería"
  },
  {
    "place_id": "ChIJR3Xg-bip05ERDw8rB7HsJgI",
    "nombre": "Bazar y manualidades KOKY",
    "direccion": "Trujillo, Riobamba, Ecuador",
    "provincia": "Chimborazo",
    "lat": -1.66607,
    "lng": -78.6358867,
    "rating": 4.5,
    "website": null,
    "keyword_found": "libreria"
  },
  {
    "place_id": "ChIJWabGzS-o05ER_OtyABouRFg",
    "nombre": "Books and Bits",
    "direccion": "Av. Daniel León Borja, Plaza Comercial Puruha, y, Riobamba 060102, Ecuador",
    "provincia": "Chimborazo",
    "lat": -1.6621769,
    "lng": -78.6619343,
    "rating": 4.4,
    "website": "https://booksandbits.ec/",
    "keyword_found": "librería"
  },
  {
    "place_id": "ChIJfdlYju4H05ERFL2pFbCt9NE",
    "nombre": "CLIP'S PAPELERIA Y SUMINISTROS",
    "direccion": "88VH+796, Av. 11 de Noviembre, Riobamba, Ecuador",
    "provincia": "Chimborazo",
    "lat": -1.6568315999999998,
    "lng": -78.6716094,
    "rating": 3.7,
    "website": "https://www.facebook.com/ClipsRiobamba/",
    "keyword_found": "papelería"
  },
  {
    "place_id": "ChIJoRl8-1Gp05ERhmrw97MGBWs",
    "nombre": "COPY BOOK - CENTRO DE COPIADO",
    "direccion": "LA DOLOROSA, Av Eloy Alfaro, Riobamba, Ecuador",
    "provincia": "Chimborazo",
    "lat": -1.6799488,
    "lng": -78.64189569999999,
    "rating": null,
    "website": null,
    "keyword_found": "papeleria"
  },
  {
    "place_id": "ChIJR181YxcJ05ER5YMbkgjtLVI",
    "nombre": "Casa del Papel",
    "direccion": "Luciano Andrade Marin, Riobamba 060107, Ecuador",
    "provincia": "Chimborazo",
    "lat": -1.6429315999999998,
    "lng": -78.6712407,
    "rating": 3,
    "website": null,
    "keyword_found": "papelería"
  },
  {
    "place_id": "ChIJCyJZTTWp05EReb7jdeDWud4",
    "nombre": "Comercial Sol@fer",
    "direccion": "060103, Riobamba 060103, Ecuador",
    "provincia": "Chimborazo",
    "lat": -1.6587859,
    "lng": -78.6392746,
    "rating": null,
    "website": null,
    "keyword_found": "librería infantil"
  },
  {
    "place_id": "ChIJ1ysQhBCo05ER7HmjM_x2SuE",
    "nombre": "Comisariato del Estudiante",
    "direccion": "Av. Antonio José de Sucre, Riobamba 060108, Ecuador",
    "provincia": "Chimborazo",
    "lat": -1.6592657,
    "lng": -78.64683149999999,
    "rating": 4.6,
    "website": "https://www.facebook.com/comies.rio/",
    "keyword_found": "libreria"
  },
  {
    "place_id": "ChIJfRbxpv6p05ERSWIjymCl1bQ",
    "nombre": "Cyber Papeleria",
    "direccion": "Colombia &, Riobamba, Ecuador",
    "provincia": "Chimborazo",
    "lat": -1.6717494,
    "lng": -78.65666740000002,
    "rating": 5,
    "website": null,
    "keyword_found": "papelería"
  },
  {
    "place_id": "ChIJLd6iBACr05ER_lZFQIWsiB4",
    "nombre": "D'Lula",
    "direccion": "79F2+57P, Riobamba, Ecuador",
    "provincia": "Chimborazo",
    "lat": -1.7270069,
    "lng": -78.6485921,
    "rating": 5,
    "website": null,
    "keyword_found": "book store"
  },
  {
    "place_id": "ChIJp_UmxtYJ05ER5wQXvVZg640",
    "nombre": "El Leon de Judáh",
    "direccion": "986C+9VV, Rio Daule, Riobamba 060105, Ecuador",
    "provincia": "Chimborazo",
    "lat": -1.6390084999999999,
    "lng": -78.6778317,
    "rating": null,
    "website": null,
    "keyword_found": "librería cristiana"
  },
  {
    "place_id": "ChIJjXSRplgRHQoRUKTzD6zVpQM",
    "nombre": "Escolar Extreme",
    "direccion": "C. Loja 14-30 y, Riobamba, Ecuador",
    "provincia": "Chimborazo",
    "lat": -1.6813087,
    "lng": -78.64813640000001,
    "rating": null,
    "website": "https://www.facebook.com/people/Bazar-y-Papeler%C3%ADa-Escolar-Extreme/100063617344749/",
    "keyword_found": "librería escolar"
  },
  {
    "place_id": "ChIJ5xYpC3YH05ERmjb_xyySqY8",
    "nombre": "IMARK LIBRERIA",
    "direccion": "CARABOBO Y, ESQUINA DEL SEMAFORO, Av. 9 de Octubre, Riobamba, Ecuador",
    "provincia": "Chimborazo",
    "lat": -1.6768303,
    "lng": -78.6588391,
    "rating": 4.7,
    "website": null,
    "keyword_found": "librería"
  },
  {
    "place_id": "ChIJDcaMPIGp05ERxASRfc6_dE4",
    "nombre": "Importadora",
    "direccion": "Junín 27-05 y, Riobamba 060150, Ecuador",
    "provincia": "Chimborazo",
    "lat": -1.6752493000000002,
    "lng": -78.64120729999999,
    "rating": null,
    "website": null,
    "keyword_found": "bookshop"
  },
  {
    "place_id": "ChIJqW4scyqp05ER_fujzEs7ZNY",
    "nombre": "Importadora Merino - Suministros de Oficina y Papeleria",
    "direccion": "Av. Alfonso Chavez, Riobamba 060108, Ecuador",
    "provincia": "Chimborazo",
    "lat": -1.6612854,
    "lng": -78.6376538,
    "rating": 5,
    "website": null,
    "keyword_found": "papelería"
  },
  {
    "place_id": "ChIJ73zglEqo05ER0WdySCwPkZA",
    "nombre": "Inpapel Cia Ltda",
    "direccion": "Ave Celso Rodriguez, Riobamba 060150, Ecuador",
    "provincia": "Chimborazo",
    "lat": -1.6799879999999998,
    "lng": -78.63287199999999,
    "rating": 4.1,
    "website": "http://www.inpapel.com/",
    "keyword_found": "papelería"
  },
  {
    "place_id": "ChIJleJfjjkH05ER8Y6B6XXZzuE",
    "nombre": "Internet y Papelería RyR",
    "direccion": "riobamba Av. 11 de noviembre, y, Riobamba 060104, Ecuador",
    "provincia": "Chimborazo",
    "lat": -1.6610443000000001,
    "lng": -78.6747686,
    "rating": 5,
    "website": null,
    "keyword_found": "papelería"
  },
  {
    "place_id": "ChIJ28v4TY2p05ERT8nSfOnSG0c",
    "nombre": "LA GRAN COMISIÓN Librería Cristiana",
    "direccion": "frente a la tienda de Disfraces \"MI DISFRAZ, Av. Unidad Nacional 32-36, Riobamba 060104, Ecuador",
    "provincia": "Chimborazo",
    "lat": -1.6690793,
    "lng": -78.6556739,
    "rating": null,
    "website": "https://www.instagram.com/lagrancomision_ecuador?utm_source=qr&igsh=dzl0aGo3YmQ2Z3U3",
    "keyword_found": "librería cristiana"
  },
  {
    "place_id": "ChIJgXJ4YuAH05ERat1rju-j0zU",
    "nombre": "LA MEGA LIBRERIA 2",
    "direccion": "Pastaza, y, Riobamba, Ecuador",
    "provincia": "Chimborazo",
    "lat": -1.6422959,
    "lng": -78.6801206,
    "rating": 3,
    "website": null,
    "keyword_found": "librería"
  },
  {
    "place_id": "ChIJK10Ymk2p05ERErYCyL1SOYY",
    "nombre": "LIBRERÍA & PAPELERÍA \"PRIMICIAS\"",
    "direccion": "Guayaquil 26-59 y, Pichincha esquina, Riobamba 060105, Ecuador",
    "provincia": "Chimborazo",
    "lat": -1.6715141999999998,
    "lng": -78.65255239999999,
    "rating": 4.2,
    "website": null,
    "keyword_found": "librería"
  },
  {
    "place_id": "ChIJQSh6AwCp05ERQ2KJRZbdrEI",
    "nombre": "LIBRERÍA EDINUN 2024",
    "direccion": "Ayacucho 35, Riobamba, Ecuador",
    "provincia": "Chimborazo",
    "lat": -1.6637757,
    "lng": -78.6533922,
    "rating": 5,
    "website": null,
    "keyword_found": "librería"
  },
  {
    "place_id": "ChIJERbIQUcH05ERWctIdnKvY7M",
    "nombre": "LIBRERÍA Multiservicios M&D New Vision",
    "direccion": "Oswaldo Guayasamin, Riobamba 060107, Ecuador",
    "provincia": "Chimborazo",
    "lat": -1.651273,
    "lng": -78.6701479,
    "rating": 5,
    "website": "https://wa.me/593992790764",
    "keyword_found": "libreria"
  },
  {
    "place_id": "ChIJp32L0G2p05ERee2An_ZcIM8",
    "nombre": "LNS Riobamba",
    "direccion": "C. Uruguay &, Riobamba, Ecuador",
    "provincia": "Chimborazo",
    "lat": -1.6663124,
    "lng": -78.6561627,
    "rating": 4,
    "website": null,
    "keyword_found": "librería"
  },
  {
    "place_id": "ChIJkWdBrZGp05EREtXNFur2guY",
    "nombre": "La Casa del Libro",
    "direccion": "Chile 25-45 y, Riobamba, Ecuador",
    "provincia": "Chimborazo",
    "lat": -1.6739568999999999,
    "lng": -78.6533026,
    "rating": 4.5,
    "website": null,
    "keyword_found": "librería"
  },
  {
    "place_id": "ChIJ76_t62ep05ERDAClDpvMRPs",
    "nombre": "Libreria",
    "direccion": "Brasil &, Riobamba, Ecuador",
    "provincia": "Chimborazo",
    "lat": -1.6638855,
    "lng": -78.65462099999999,
    "rating": null,
    "website": null,
    "keyword_found": "librería escolar"
  },
  {
    "place_id": "ChIJx-IZ8T2p05ERlZARhQ1L8ok",
    "nombre": "Libreria & Papeleria IMC",
    "direccion": "Av. Antonio José de Sucre, Riobamba 060108, Ecuador",
    "provincia": "Chimborazo",
    "lat": -1.6576178,
    "lng": -78.64562520000001,
    "rating": 1.7,
    "website": null,
    "keyword_found": "librería"
  },
  {
    "place_id": "ChIJn3Jh9jmp05ERo31FcA4nHNo",
    "nombre": "Libreria Chimborazo",
    "direccion": "Av. Eloy Alfaro, y, Riobamba 060150, Ecuador",
    "provincia": "Chimborazo",
    "lat": -1.6791924,
    "lng": -78.6409656,
    "rating": 4.6,
    "website": "http://www.libreriachimborazo.com/",
    "keyword_found": "librería"
  },
  {
    "place_id": "ChIJe0DvHDOo05ERyG6mWfdcPfc",
    "nombre": "Libreria Ciencia y Técnica",
    "direccion": "89C5+426, Riobamba, Ecuador",
    "provincia": "Chimborazo",
    "lat": -1.6797035000000002,
    "lng": -78.64248359999999,
    "rating": 4.8,
    "website": null,
    "keyword_found": "librería"
  },
  {
    "place_id": "ChIJG4TQIi-o05ER0Qu2xp-g4Mw",
    "nombre": "Libreria Exito",
    "direccion": "Guayaquil 22-16 y, Riobamba, Ecuador",
    "provincia": "Chimborazo",
    "lat": -1.6737328000000002,
    "lng": -78.64991719999999,
    "rating": 4.5,
    "website": null,
    "keyword_found": "librería"
  },
  {
    "place_id": "ChIJg2kPNOoH05ERp5Gk1MpHA_o",
    "nombre": "Libreria Juniors",
    "direccion": "88FR+4JW, Riobamba, Ecuador",
    "provincia": "Chimborazo",
    "lat": -1.6771300999999998,
    "lng": -78.6584123,
    "rating": 4.2,
    "website": null,
    "keyword_found": "librería"
  },
  {
    "place_id": "ChIJ3XUzToWp05ER0ZNarj5kR18",
    "nombre": "Libreria Politecnica",
    "direccion": "Roma, y, Riobamba 060110, Ecuador",
    "provincia": "Chimborazo",
    "lat": -1.6851405,
    "lng": -78.6389032,
    "rating": 5,
    "website": "https://m.facebook.com/librerialapolitecnica",
    "keyword_found": "librería"
  },
  {
    "place_id": "ChIJNRnugSKo05ERmNx0xY7Al1k",
    "nombre": "Libreria Q Buena Nota",
    "direccion": "Juan Montalvo, Riobamba, Ecuador",
    "provincia": "Chimborazo",
    "lat": -1.6619427999999998,
    "lng": -78.6478153,
    "rating": 4.4,
    "website": null,
    "keyword_found": "librería"
  },
  {
    "place_id": "ChIJ1-vhuhip05ERbWqBDmAsCFc",
    "nombre": "Libreria Tecnica",
    "direccion": "España 23-45 y, Riobamba 060102, Ecuador",
    "provincia": "Chimborazo",
    "lat": -1.6708520999999998,
    "lng": -78.6502697,
    "rating": 3.9,
    "website": null,
    "keyword_found": "librería"
  },
  {
    "place_id": "ChIJVSgFYDuo05ERyeeSv2c4sto",
    "nombre": "Libreria los altares",
    "direccion": "Luz Eliza Borja, y, Riobamba, Ecuador",
    "provincia": "Chimborazo",
    "lat": -1.6669178,
    "lng": -78.6436859,
    "rating": 4.3,
    "website": null,
    "keyword_found": "librería"
  },
  {
    "place_id": "ChIJQQ2ukJEH05ERX5evezV86ho",
    "nombre": "Libreria y Papeleria Dalias",
    "direccion": "060102, Riobamba 060102, Ecuador",
    "provincia": "Chimborazo",
    "lat": -1.6588284999999998,
    "lng": -78.6590446,
    "rating": 5,
    "website": null,
    "keyword_found": "librería"
  },
  {
    "place_id": "ChIJ6fRETcAH05ER27OQJWSGA10",
    "nombre": "Libreria y papeleria LA POLI",
    "direccion": "Av. Pedro Vicente Maldonado &, Riobamba, Ecuador",
    "provincia": "Chimborazo",
    "lat": -1.6602257,
    "lng": -78.6815926,
    "rating": 4.4,
    "website": null,
    "keyword_found": "librería"
  },
  {
    "place_id": "ChIJeW6Yoeup05ERIfcNaUKCsyY",
    "nombre": "Librería",
    "direccion": "1234, Riobamba, Ecuador",
    "provincia": "Chimborazo",
    "lat": -1.6580781,
    "lng": -78.6436025,
    "rating": null,
    "website": null,
    "keyword_found": "librería"
  },
  {
    "place_id": "ChIJt6neEWup05EREFwGGFizVmg",
    "nombre": "Librería \"LA LEY\"",
    "direccion": "Av. Jose Veloz &, Riobamba, Ecuador",
    "provincia": "Chimborazo",
    "lat": -1.6694224,
    "lng": -78.6515864,
    "rating": 4.5,
    "website": null,
    "keyword_found": "librería"
  },
  {
    "place_id": "ChIJtSPX4i6o05ERc-klFfa6Zx4",
    "nombre": "Librería Atlantida",
    "direccion": "89G2+68Q, Riobamba, Ecuador",
    "provincia": "Chimborazo",
    "lat": -1.6744158999999998,
    "lng": -78.6491285,
    "rating": 4.3,
    "website": null,
    "keyword_found": "librería"
  },
  {
    "place_id": "ChIJDZ3eA_6p05ERPdw-2w3igiw",
    "nombre": "Librería Bolivariana",
    "direccion": "Cristobal Colon 2406, Riobamba, Ecuador",
    "provincia": "Chimborazo",
    "lat": -1.6716976,
    "lng": -78.6488167,
    "rating": 4,
    "website": null,
    "keyword_found": "librería"
  },
  {
    "place_id": "ChIJrzMM6zep05ERREX8-OjCohg",
    "nombre": "Librería Bookexpress",
    "direccion": "88FX+WJ4, Eugenio Espejo, Riobamba, Ecuador",
    "provincia": "Chimborazo",
    "lat": -1.6752946,
    "lng": -78.6509799,
    "rating": null,
    "website": null,
    "keyword_found": "bookshop"
  },
  {
    "place_id": "ChIJTe0Lcrap05ERCbFxw9taJMY",
    "nombre": "Librería Chimborazo",
    "direccion": "Cristobal Colon 24 10 y, Riobamba, Ecuador",
    "provincia": "Chimborazo",
    "lat": -1.6716312999999998,
    "lng": -78.6487617,
    "rating": 4.3,
    "website": "http://www.libreriachimborazo.com/",
    "keyword_found": "librería"
  },
  {
    "place_id": "ChIJ25dn5t-p05ERHYRRduO_4wc",
    "nombre": "Librería Cristiana Pan De Vida",
    "direccion": "Mercado de San Francisco, Riobamba, Ecuador",
    "provincia": "Chimborazo",
    "lat": -1.6749983,
    "lng": -78.6471546,
    "rating": 5,
    "website": null,
    "keyword_found": "librería cristiana"
  },
  {
    "place_id": "ChIJDVOiGC-o05ERWJhfmWvzUuo",
    "nombre": "Librería Ediciones Coquito y Manualidades Mundo Magico",
    "direccion": "Eugenio Espejo &, Riobamba, Ecuador",
    "provincia": "Chimborazo",
    "lat": -1.6736942,
    "lng": -78.649412,
    "rating": 4.8,
    "website": null,
    "keyword_found": "librería"
  },
  {
    "place_id": "ChIJ59wtUu4H05ERs-Gjl57kHOs",
    "nombre": "Librería Exito",
    "direccion": "88VH+WV5, Riobamba, Ecuador",
    "provincia": "Chimborazo",
    "lat": -1.6552257,
    "lng": -78.67025579999999,
    "rating": 4.5,
    "website": null,
    "keyword_found": "librería"
  },
  {
    "place_id": "ChIJR6EBszOo05ER3OwNZVf9ibc",
    "nombre": "Librería F&B",
    "direccion": "entre Cuba y, Primera Constituyente, Riobamba 060103, Ecuador",
    "provincia": "Chimborazo",
    "lat": -1.6779435999999999,
    "lng": -78.6427954,
    "rating": 5,
    "website": null,
    "keyword_found": "librería"
  },
  {
    "place_id": "ChIJU3N7hgup05ERV4d29VWnQ1s",
    "nombre": "Librería Fantasis Blu",
    "direccion": "Av. Gonzalo Dávalos 3833, Riobamba, Ecuador",
    "provincia": "Chimborazo",
    "lat": -1.6611173,
    "lng": -78.6561304,
    "rating": 5,
    "website": null,
    "keyword_found": "librería"
  },
  {
    "place_id": "ChIJLYBCE66p05ER_L7N-z3wkGw",
    "nombre": "Librería GEOMUNDO",
    "direccion": "10 de agosto, y, Riobamba 060104, Ecuador",
    "provincia": "Chimborazo",
    "lat": -1.6699422,
    "lng": -78.65314169999999,
    "rating": 4.8,
    "website": null,
    "keyword_found": "librería"
  },
  {
    "place_id": "ChIJc1_TU2ap05ERnka1KjVygeA",
    "nombre": "Librería Ideal",
    "direccion": "79WF+R7W Cooperativa Nuevos Horizontes, Riobamba, Ecuador",
    "provincia": "Chimborazo",
    "lat": -1.7028873000000002,
    "lng": -78.6267847,
    "rating": 4.8,
    "website": null,
    "keyword_found": "libreria"
  },
  {
    "place_id": "ChIJj1jrNOKp05ERsx_9XM_Gd6s",
    "nombre": "Librería Millenium Riobamba - Útiles Escolares",
    "direccion": "Boyacá, y, Riobamba 060104, Ecuador",
    "provincia": "Chimborazo",
    "lat": -1.6744739,
    "lng": -78.65598100000001,
    "rating": 5,
    "website": null,
    "keyword_found": "librería"
  },
  {
    "place_id": "ChIJOUyCD4Op05ERC_Jq2rkwEjY",
    "nombre": "Librería Riobamba",
    "direccion": "Guayaquil &, Riobamba, Ecuador",
    "provincia": "Chimborazo",
    "lat": -1.6777267,
    "lng": -78.64533809999999,
    "rating": 4.7,
    "website": null,
    "keyword_found": "librería"
  },
  {
    "place_id": "ChIJHdQyEdep05ERtxzkTZturrA",
    "nombre": "Librería Santillana",
    "direccion": "Jerusalén, y, Riobamba 060104, Ecuador",
    "provincia": "Chimborazo",
    "lat": -1.6749668,
    "lng": -78.62884679999999,
    "rating": null,
    "website": null,
    "keyword_found": "bookshop"
  },
  {
    "place_id": "ChIJ-VifUsip05ERYIpFVnhhabo",
    "nombre": "Librería Stelasur Riobamba",
    "direccion": "Eugenio Espejo 2959, Riobamba, Ecuador",
    "provincia": "Chimborazo",
    "lat": -1.6688211,
    "lng": -78.64564229999999,
    "rating": null,
    "website": null,
    "keyword_found": "librería"
  },
  {
    "place_id": "ChIJz8o5KGOp05ERx0PAXfgpQzk",
    "nombre": "Librería Universitaria",
    "direccion": "GUAYAQUIL, Y, Riobamba 060110, Ecuador",
    "provincia": "Chimborazo",
    "lat": -1.680491,
    "lng": -78.6420651,
    "rating": 4.7,
    "website": "https://libreriauniversitaria.ec/",
    "keyword_found": "librería"
  },
  {
    "place_id": "ChIJtc7esw-b0pERgOA7q6O6yQw",
    "nombre": "Librería y Bazar IDEAL",
    "direccion": "10 de agosto entre Alvarado, y, Riobamba 060103, Ecuador",
    "provincia": "Chimborazo",
    "lat": -1.6759956999999999,
    "lng": -78.6461808,
    "rating": 4.7,
    "website": null,
    "keyword_found": "librería"
  },
  {
    "place_id": "ChIJGWwgxEYH05ERPUyhCAluRmI",
    "nombre": "Librería y Papelería Disney",
    "direccion": "12 de octubre y, Bolivia, Riobamba 060104, Ecuador",
    "provincia": "Chimborazo",
    "lat": -1.6736796999999999,
    "lng": -78.6609373,
    "rating": 5,
    "website": "https://www.facebook.com/libreriapapeleriaybazardisneynet/",
    "keyword_found": "librería"
  },
  {
    "place_id": "ChIJ599wGkOr05ERXQcGhAgVtoU",
    "nombre": "Librería\"PLANETA ESCOLAR\"",
    "direccion": "Riobamba, Chambo, Ecuador",
    "provincia": "Chimborazo",
    "lat": -1.7249746000000001,
    "lng": -78.5978324,
    "rating": 5,
    "website": null,
    "keyword_found": "librería escolar"
  },
  {
    "place_id": "ChIJQeOP2yup05ERjmRmM9qOO4c",
    "nombre": "Librocentro Riobamba",
    "direccion": "89C2+H97, Riobamba, Ecuador",
    "provincia": "Chimborazo",
    "lat": -1.6785997,
    "lng": -78.6490685,
    "rating": 5,
    "website": null,
    "keyword_found": "librería"
  },
  {
    "place_id": "ChIJe03R2OQH05ERTyhIrrdr7tU",
    "nombre": "Los Andes Internet Libreria",
    "direccion": "88XJ+R8V, y, Riobamba 060150, Ecuador",
    "provincia": "Chimborazo",
    "lat": -1.6503782999999999,
    "lng": -78.6692036,
    "rating": 3.5,
    "website": null,
    "keyword_found": "libreria"
  },
  {
    "place_id": "ChIJZ3VROXGp05ERiRr8DdQZhZw",
    "nombre": "Marvel Papeleria",
    "direccion": "88FX+XJ5, Riobamba, Ecuador",
    "provincia": "Chimborazo",
    "lat": -1.6751143,
    "lng": -78.6508861,
    "rating": 5,
    "website": null,
    "keyword_found": "papelería"
  },
  {
    "place_id": "ChIJk5HcEQip05ERw-rLl8wroY4",
    "nombre": "Mega escolar",
    "direccion": "Boyacá &, Riobamba, Ecuador",
    "provincia": "Chimborazo",
    "lat": -1.6738477999999999,
    "lng": -78.6563941,
    "rating": null,
    "website": null,
    "keyword_found": "librería"
  },
  {
    "place_id": "ChIJo8VAlTOp05ERwHjebYPLjII",
    "nombre": "Mundo de Papel Riobamba",
    "direccion": "Primera Constituyente, Riobamba 060111, Ecuador",
    "provincia": "Chimborazo",
    "lat": -1.674053,
    "lng": -78.6471993,
    "rating": 3.3,
    "website": "https://www.facebook.com/p/MUNDO-De-PAPEL-Distribuidora-%C3%9Atiles-Escolares-y-Oficina-100063706115586/",
    "keyword_found": "papelería"
  },
  {
    "place_id": "ChIJg3JMm_Cp05ERFZhNguuY1_A",
    "nombre": "MÁXIMA ESCALA",
    "direccion": "060108, Riobamba 060108, Ecuador",
    "provincia": "Chimborazo",
    "lat": -1.6550251999999999,
    "lng": -78.6431648,
    "rating": 5,
    "website": null,
    "keyword_found": "libreria"
  },
  {
    "place_id": "ChIJ3fbErw-p05ERbwQx75G8EjE",
    "nombre": "Novedades Kawaii",
    "direccion": "Monseñor Ulpiano Perez &, Riobamba, Ecuador",
    "provincia": "Chimborazo",
    "lat": -1.6671737999999998,
    "lng": -78.6402742,
    "rating": 5,
    "website": null,
    "keyword_found": "librería infantil"
  },
  {
    "place_id": "ChIJyT2dZ3gH05ERWmSvnM6WCYk",
    "nombre": "PAPELERIA E INTERNET LAPIZ PAPEL Y TIJERAS",
    "direccion": "Av Pedro Vicente Maldonado, Y, Riobamba 060114, Ecuador",
    "provincia": "Chimborazo",
    "lat": -1.6541762999999998,
    "lng": -78.70044670000001,
    "rating": null,
    "website": null,
    "keyword_found": "papelería"
  },
  {
    "place_id": "ChIJH9nwR1Gp05ERLxLcifkkG0U",
    "nombre": "PAPELERIA Y MANTENIMIENTO PC CAMY",
    "direccion": "10 de Agosto &, Riobamba, Ecuador",
    "provincia": "Chimborazo",
    "lat": -1.6768694,
    "lng": -78.6453655,
    "rating": null,
    "website": null,
    "keyword_found": "papelería"
  },
  {
    "place_id": "ChIJ0WwABXSp05ERdG6EWbUMaoQ",
    "nombre": "Papeleria",
    "direccion": "8988+V3F, Riobamba, Ecuador",
    "provincia": "Chimborazo",
    "lat": -1.6828184,
    "lng": -78.6348155,
    "rating": 5,
    "website": null,
    "keyword_found": "papelería"
  },
  {
    "place_id": "ChIJ82bkC_sH05ERo4ZDqRZZC_4",
    "nombre": "Papeleria Ingenio Creativo",
    "direccion": "982M+5P3, Riobamba, Ecuador",
    "provincia": "Chimborazo",
    "lat": -1.6496243000000002,
    "lng": -78.6656923,
    "rating": 4.2,
    "website": null,
    "keyword_found": "papelería"
  },
  {
    "place_id": "ChIJG_omACyo05ERRDeRBXtfjW4",
    "nombre": "Papeleria Sabbath",
    "direccion": "Colombia entre 5 de junio, Eugenio Espejo, Riobamba, Ecuador",
    "provincia": "Chimborazo",
    "lat": -1.6764845,
    "lng": -78.65140219999999,
    "rating": 4.5,
    "website": null,
    "keyword_found": "papelería"
  },
  {
    "place_id": "ChIJ83O_NIgH05ERt6xJHekIFqo",
    "nombre": "Papeleria Vitruvio",
    "direccion": "88JR+5Q5, Eugenio Espejo, Riobamba, Ecuador",
    "provincia": "Chimborazo",
    "lat": -1.6696071,
    "lng": -78.6580213,
    "rating": 2.9,
    "website": null,
    "keyword_found": "papelería"
  },
  {
    "place_id": "ChIJNfiIWY4H05ERjrkVi9lo8d0",
    "nombre": "Papeleria, bazar & Variedades Nuevo Mundo",
    "direccion": "Pichincha 21-67 y, Riobamba 170403, Ecuador",
    "provincia": "Chimborazo",
    "lat": -1.6650227,
    "lng": -78.6588786,
    "rating": null,
    "website": null,
    "keyword_found": "papelería"
  },
  {
    "place_id": "ChIJiQP8I_8H05ERXG4KdYbZlqc",
    "nombre": "Papelería Norte",
    "direccion": "Canónimo Ramos, C. César León Hidalgo, Riobamba 060102, Ecuador",
    "provincia": "Chimborazo",
    "lat": -1.6615532,
    "lng": -78.66355899999999,
    "rating": 5,
    "website": "https://www.facebook.com/Papeler%C3%ADa-Norte-Riobamba-102336674939733/?modal=admin_todo_tour",
    "keyword_found": "papelería"
  },
  {
    "place_id": "ChIJI2YUmq8H05ERNEkMwFEFROw",
    "nombre": "Papelería Universitaria y Tecnología",
    "direccion": "Avenida La Prensa 1860 Y, Riobamba 060101, Ecuador",
    "provincia": "Chimborazo",
    "lat": -1.6649372999999998,
    "lng": -78.6648745,
    "rating": 3.6,
    "website": null,
    "keyword_found": "librería universitaria"
  },
  {
    "place_id": "ChIJX52eRQCp05ERBct_vibYMNo",
    "nombre": "SEBLASER",
    "direccion": "89V3+5VH, Jose Maria Urbina, Riobamba, Ecuador",
    "provincia": "Chimborazo",
    "lat": -1.6570799999999999,
    "lng": -78.6452461,
    "rating": null,
    "website": null,
    "keyword_found": "librería"
  },
  {
    "place_id": "ChIJB2uHvUEH05ER6_0GdcTwW8M",
    "nombre": "TECNIBOOK",
    "direccion": "Av. Pedro Vicente Maldonado y Feliciano Checa, Riobamba 060106, Ecuador",
    "provincia": "Chimborazo",
    "lat": -1.6612786000000002,
    "lng": -78.6778983,
    "rating": 4.6,
    "website": "https://www.facebook.com/Tecnibook-105339974852399/",
    "keyword_found": "librería infantil"
  },
  {
    "place_id": "ChIJreQr-cCp05ER4818WXsIuq0",
    "nombre": "Tienda, Bazar y Papeleria Susanita",
    "direccion": "Barrio Pisin, Riobamba 060104, Ecuador",
    "provincia": "Chimborazo",
    "lat": -1.6694032,
    "lng": -78.6280017,
    "rating": 5,
    "website": null,
    "keyword_found": "papelería"
  },
  {
    "place_id": "ChIJvXxJ-jmp05ERJsmnk3Mn_VQ",
    "nombre": "Todo Arte Papelería kawaii",
    "direccion": "10 de Agosto, Riobamba, Ecuador",
    "provincia": "Chimborazo",
    "lat": -1.6764816999999999,
    "lng": -78.64579239999999,
    "rating": 4,
    "website": "https://www.instagram.com/invites/contact/?i=1qtrdqpprhcm9&utm_content=h8dni3x",
    "keyword_found": "papelería"
  },
  {
    "place_id": "ChIJK1dcuP6p05ER8qHDj4Na-5A",
    "nombre": "libreria y papeleria Gama",
    "direccion": "JUAN MONTALVO ENTRE AVENIDA UNIDAD NACIONAL, Y, Riobamba 060111, Ecuador",
    "provincia": "Chimborazo",
    "lat": -1.6701077,
    "lng": -78.6544397,
    "rating": 4.1,
    "website": null,
    "keyword_found": "librería"
  },
  {
    "place_id": "ChIJQds9EL8H05ERsbJF6OZQQ8g",
    "nombre": "zGamer&Papelería",
    "direccion": "José de Peralta &, Riobamba 060150, Ecuador",
    "provincia": "Chimborazo",
    "lat": -1.6579709000000002,
    "lng": -78.6820882,
    "rating": 5,
    "website": "http://n9.cl/tipstersport",
    "keyword_found": "papelería"
  }
]