[
  {
    "place_id": "ChIJJUJD8lul1pERL85Y0fXpae0",
    "nombre": "ArTec",
    "direccion": "Av. el chofer entre calles alejandro pasos y Victor Hugo, 253P+FHC, Tena 150150, Ecuador",
    "provincia": "Napo",
    "lat": -0.9963209000000001,
    "lng": -77.8136007,
    "rating": null,
    "website": null,
    "keyword_found": "librería"
  },
  {
    "place_id": "ChIJNZkZZKWl1pERozIXsPmPGCk",
    "nombre": "Bazar Y Papeleria Viteri",
    "direccion": "253P+MQ8, Av. 15 de Noviembre, Tena, Ecuador",
    "provincia": "Napo",
    "lat": -0.9958423000000001,
    "lng": -77.8130474,
    "rating": null,
    "website": null,
    "keyword_found": "papelería"
  },
  {
    "place_id": "ChIJ6e2MwqKl1pERBNOxxdxaIOs",
    "nombre": "Bazar Y Papelería Matilde",
    "direccion": "Tena, Simón Bolívar e Isidro Ayora, 256J+WC5, Tena, Ecuador",
    "provincia": "Napo",
    "lat": -0.9877372999999999,
    "lng": -77.8188832,
    "rating": 4,
    "website": null,
    "keyword_found": "papelería"
  },
  {
    "place_id": "ChIJH2HnokGr1pERbSbKxt4qNow",
    "nombre": "Bazar Y Papelería Santhiago",
    "direccion": "Carlos Julio Arosemena Tola, Ecuador",
    "provincia": "Napo",
    "lat": -1.168057,
    "lng": -77.8554588,
    "rating": null,
    "website": null,
    "keyword_found": "papelería"
  },
  {
    "place_id": "ChIJaWwQOeml1pERwn_aGPZS9Jo",
    "nombre": "Bazar y Papelería Paco PICHINCHA MI VECINO",
    "direccion": "C. Alfredo Pareja, Tena 150150, Ecuador",
    "provincia": "Napo",
    "lat": -0.987692,
    "lng": -77.8183482,
    "rating": null,
    "website": null,
    "keyword_found": "papelería"
  },
  {
    "place_id": "ChIJX1K9cwCj1pERu4SGoIGSoEA",
    "nombre": "CYBER FENIX PAPELERIA",
    "direccion": "35RR+2PC, Av. Jondachi, Archidona 150350, Ecuador",
    "provincia": "Napo",
    "lat": -0.9099375000000001,
    "lng": -77.8081875,
    "rating": null,
    "website": null,
    "keyword_found": "papeleria"
  },
  {
    "place_id": "ChIJIe_aZSCl1pERScyoZGsQGVc",
    "nombre": "CYBER OLYMPUS PAPELERIA & BAZAR",
    "direccion": "C. Victor Hugo San Miguel, Tena, Ecuador",
    "provincia": "Napo",
    "lat": -1.0005677,
    "lng": -77.81190099999999,
    "rating": 3.5,
    "website": null,
    "keyword_found": "papeleria"
  },
  {
    "place_id": "ChIJY9X0wEGr1pERQWrZzL_6HaY",
    "nombre": "Cyber & Papelería Emanuel",
    "direccion": "Carlos Julio Arosemena Tola, Ecuador",
    "provincia": "Napo",
    "lat": -1.1673221,
    "lng": -77.8554987,
    "rating": null,
    "website": null,
    "keyword_found": "papelería"
  },
  {
    "place_id": "ChIJOw8l_nel1pERJPVw8JskO2M",
    "nombre": "ELECTRICA, PAPELERIA Y CYBER \"DANIELA\"",
    "direccion": "Amazonas &, Tena 150101, Ecuador",
    "provincia": "Napo",
    "lat": -0.9907074,
    "lng": -77.81601979999999,
    "rating": null,
    "website": null,
    "keyword_found": "papeleria"
  },
  {
    "place_id": "ChIJXf6EfDWj1pER7Krk_gOKujI",
    "nombre": "LIBRERIA AMÉRICA",
    "direccion": "35QR+GQ5, Archidona, Ecuador",
    "provincia": "Napo",
    "lat": -0.9112333999999999,
    "lng": -77.8080172,
    "rating": 5,
    "website": null,
    "keyword_found": "librería"
  },
  {
    "place_id": "ChIJaQoskRKN1pERect6AFJUNCU",
    "nombre": "LIBRERÍA HOME STORE WAWA SUMACO",
    "direccion": "WAWA SUMACO, ARCHIDONA, Ecuador",
    "provincia": "Napo",
    "lat": -0.7244284999999999,
    "lng": -77.57506459999999,
    "rating": 3.7,
    "website": null,
    "keyword_found": "librería"
  },
  {
    "place_id": "ChIJ3SrAa0ek1pERei1Ptp1OI28",
    "nombre": "Libreria & Papeleria Makevin",
    "direccion": "258P+4WF, Av. 15 de Noviembre, Tena, Ecuador",
    "provincia": "Napo",
    "lat": -0.9846924,
    "lng": -77.8127044,
    "rating": null,
    "website": null,
    "keyword_found": "librería"
  },
  {
    "place_id": "ChIJfWeDLgCj1pERh2UXshU_-rA",
    "nombre": "Librería Genius",
    "direccion": "35QR+WW8, Jondachi, Archidona, Ecuador",
    "provincia": "Napo",
    "lat": -0.9102032999999999,
    "lng": -77.80766609999999,
    "rating": null,
    "website": null,
    "keyword_found": "librería"
  },
  {
    "place_id": "ChIJAVhJKgCl1pER9G6f5wKP9Ks",
    "nombre": "Librería y papelería amazonas 2",
    "direccion": "12 de Febrero 354, Tena, Ecuador",
    "provincia": "Napo",
    "lat": -0.9945417,
    "lng": -77.8129153,
    "rating": null,
    "website": null,
    "keyword_found": "librería"
  },
  {
    "place_id": "ChIJL5twelel1pERCsJg1XEeA34",
    "nombre": "Librería y papelería entre papeles Papiros",
    "direccion": "X5XQ+M8C, Tena, Ecuador",
    "provincia": "Napo",
    "lat": -1.0008047,
    "lng": -77.8117336,
    "rating": null,
    "website": null,
    "keyword_found": "librería"
  },
  {
    "place_id": "ChIJpa07tECk1pERgZAEQKioeYc",
    "nombre": "Nity Copias Bazar & Papeleria",
    "direccion": "Tena, Ecuador",
    "provincia": "Napo",
    "lat": -0.9830603,
    "lng": -77.8126609,
    "rating": null,
    "website": null,
    "keyword_found": "papeleria"
  },
  {
    "place_id": "ChIJTcjceMGh1pER3d0YdFIPMp0",
    "nombre": "PAPELERIA Y NOVEDADES \"A&E\" TAPUY",
    "direccion": "150158 atacapi, 150158, Ecuador",
    "provincia": "Napo",
    "lat": -0.9553940999999999,
    "lng": -77.8597691,
    "rating": null,
    "website": null,
    "keyword_found": "papelería"
  },
  {
    "place_id": "ChIJE2pz6uCj1pER7NFh_nL0NTI",
    "nombre": "PAPELERÍA ARCHIDONA",
    "direccion": "35RV+79M, Archidona 150103, Ecuador",
    "provincia": "Napo",
    "lat": -0.9092807,
    "lng": -77.806564,
    "rating": 5,
    "website": null,
    "keyword_found": "papelería"
  },
  {
    "place_id": "ChIJJ4j63Del1pERkdf6AtkPOIQ",
    "nombre": "Papeleria Compu Click",
    "direccion": "Tena 150101, Ecuador",
    "provincia": "Napo",
    "lat": -0.9920296,
    "lng": -77.8168857,
    "rating": null,
    "website": "https://www.facebook.com/share/1Jh5vX22Kq/",
    "keyword_found": "papelería"
  },
  {
    "place_id": "ChIJ2YAAc0-Z1pEReXtzPmRdsbo",
    "nombre": "Papeleria Kalolo",
    "direccion": "Archidona 150103, Ecuador",
    "provincia": "Napo",
    "lat": -0.8436011,
    "lng": -77.7964865,
    "rating": 5,
    "website": null,
    "keyword_found": "papeleria"
  },
  {
    "place_id": "ChIJ6wTDXral1pER4O7yO4pF1lo",
    "nombre": "Papelería Erika",
    "direccion": "Av. 15 de noviembre y, Tena, Quito, Ecuador",
    "provincia": "Napo",
    "lat": -1.003402,
    "lng": -77.811228,
    "rating": 4.5,
    "website": null,
    "keyword_found": "papelería"
  },
  {
    "place_id": "ChIJq4KhEACh1pERGtp2qrrJc78",
    "nombre": "Papelería LMJS",
    "direccion": "24XQ+49H, Atacapi, Tena, Ecuador",
    "provincia": "Napo",
    "lat": -0.95219,
    "lng": -77.86152659999999,
    "rating": null,
    "website": null,
    "keyword_found": "papelería"
  },
  {
    "place_id": "ChIJs4jlXVOl1pERtdoXHMOgAkM",
    "nombre": "Papelería Mil Novedades",
    "direccion": "Tena 150101, Ecuador",
    "provincia": "Napo",
    "lat": -0.9984395999999999,
    "lng": -77.8131803,
    "rating": null,
    "website": null,
    "keyword_found": "papelería"
  },
  {
    "place_id": "ChIJ274UNt-l1pEROcFgb15jSPE",
    "nombre": "PuntoBB Red Activa WU Mp Bazar Y Papeleria J J E Tena",
    "direccion": "Av. 15 De Noviembre, Diagonal A La Despensa Lupita, Y Sn, Tena, Ecuador",
    "provincia": "Napo",
    "lat": -1.0015402,
    "lng": -77.8114054,
    "rating": null,
    "website": "https://www.bolivariano.com/",
    "keyword_found": "papeleria"
  },
  {
    "place_id": "ChIJHfuF2w6l1pERw9_gQH09TWg",
    "nombre": "PuntoBB Red Activa WU Mp Bazar Y Papeleria Santiago Tena",
    "direccion": "Alfredo Pareja, A Dos Cuadras De La Empresa Electrica, Y Sn, Tena, Ecuador",
    "provincia": "Napo",
    "lat": -0.9878439999999999,
    "lng": -77.818247,
    "rating": null,
    "website": "https://www.bolivariano.com/",
    "keyword_found": "papeleria"
  },
  {
    "place_id": "ChIJ68zNabil1pER0xnl_sL2bmI",
    "nombre": "PuntoBB Red Activa WU Mp Bazar Y Papeleria Sarela Tena",
    "direccion": "Frente Al Ministerio De Agricultura Y Ganaderia, Simon Bolivar, Tena, Ecuador",
    "provincia": "Napo",
    "lat": -0.9881994999999999,
    "lng": -77.8155369,
    "rating": null,
    "website": "https://www.bolivariano.com/",
    "keyword_found": "papeleria"
  },
  {
    "place_id": "ChIJO66HLMOl1pERn00VI_At44A",
    "nombre": "PuntoBB Red Activa WU Mp Papeleria Mareliz Tena",
    "direccion": "Diaz De Pineda, Diagonal A La Coop Tena, Y S/N, Tena, Ecuador",
    "provincia": "Napo",
    "lat": -0.9919572999999998,
    "lng": -77.8131578,
    "rating": null,
    "website": "https://www.bolivariano.com/",
    "keyword_found": "papeleria"
  },
  {
    "place_id": "ChIJg4AzHQWl1pERXrKwO-NWVBU",
    "nombre": "PuntoBB Red Activa WU Mp Papeleria Y Cyber Andres Tena",
    "direccion": "Manuel Maria Rosales, Junto Al Pueste Paushuyacu, Y S/N, Tena, Ecuador",
    "provincia": "Napo",
    "lat": -1.0012809999999999,
    "lng": -77.81044399999999,
    "rating": null,
    "website": "https://www.bolivariano.com/",
    "keyword_found": "papeleria"
  },
  {
    "place_id": "ChIJ1_A4CACZ1pERE8vofwiCq0s",
    "nombre": "San Ramon",
    "direccion": "vía Santa Rita, Ecuador",
    "provincia": "Napo",
    "lat": -0.878547,
    "lng": -77.8211527,
    "rating": 5,
    "website": null,
    "keyword_found": "librería"
  }
]