[
  {
    "place_id": "ChIJJUJD8lul1pERL85Y0fXpae0",
    "nombre": "ArTec",
    "direccion": "Av. el chofer entre calles alejandro pasos y Victor Hugo, 253P+FHC, Tena 150150, Ecuador",
    "provincia": "Napo",
    "lat": -0.9963209000000001,
    "lng": -77.8136007,
    "rating": null,
    "website": null,
    "keyword_found": "librería"
  },
  {
    "place_id": "ChIJNZkZZKWl1pERozIXsPmPGCk",
    "nombre": "Bazar Y Papeleria Viteri",
    "direccion": "253P+MQ8, Av. 15 de Noviembre, Tena, Ecuador",
    "provincia": "Napo",
    "lat": -0.9958423000000001,
    "lng": -77.8130474,
    "rating": null,
    "website": null,
    "keyword_found": "papelería"
  },
  {
    "place_id": "ChIJ6e2MwqKl1pERBNOxxdxaIOs",
    "nombre": "Bazar Y Papelería Matilde",
    "direccion": "Tena, Simón Bolívar e Isidro Ayora, 256J+WC5, Tena, Ecuador",
    "provincia": "Napo",
    "lat": -0.9877372999999999,
    "lng": -77.8188832,
    "rating": 4,
    "website": null,
    "keyword_found": "papelería"
  },
  {
    "place_id": "ChIJaWwQOeml1pERwn_aGPZS9Jo",
    "nombre": "Bazar y Papelería Paco PICHINCHA MI VECINO",
    "direccion": "C. Alfredo Pareja, Tena 150150, Ecuador",
    "provincia": "Napo",
    "lat": -0.987692,
    "lng": -77.8183482,
    "rating": null,
    "website": null,
    "keyword_found": "papelería"
  },
  {
    "place_id": "ChIJa2cbUr2a1ZERqSlGGwuGt5c",
    "nombre": "CLC Ecuador",
    "direccion": "N42-138, Av. de la Prensa, Quito 170521, Ecuador",
    "provincia": "Napo",
    "lat": -0.1642576,
    "lng": -78.4869051,
    "rating": 4.8,
    "website": "http://www.clcecuador.com/",
    "keyword_found": "librería cristiana"
  },
  {
    "place_id": "ChIJIe_aZSCl1pERScyoZGsQGVc",
    "nombre": "CYBER OLYMPUS PAPELERIA & BAZAR",
    "direccion": "C. Victor Hugo San Miguel, Tena, Ecuador",
    "provincia": "Napo",
    "lat": -1.0005677,
    "lng": -77.81190099999999,
    "rating": 3.5,
    "website": null,
    "keyword_found": "papelería"
  },
  {
    "place_id": "ChIJt9848ESb1ZERwXrQyWsTtsg",
    "nombre": "Centro de vida nueva CVN",
    "direccion": "N 36-10 y, Av. 10 de Agosto, Quito 170507, Ecuador",
    "provincia": "Napo",
    "lat": -0.1777163,
    "lng": -78.4886077,
    "rating": 4.9,
    "website": "https://vidalibros.com.ec/",
    "keyword_found": "librería cristiana"
  },
  {
    "place_id": "ChIJN60DOhGa1ZER-Y0bVXtPOME",
    "nombre": "Cevallos librería jurídica - Matriz",
    "direccion": "Jerónimo Carrión N22-14 y, Quito 170523, Ecuador",
    "provincia": "Napo",
    "lat": -0.20760689999999998,
    "lng": -78.4912768,
    "rating": 4.6,
    "website": "http://www.cevalloslibreriajuridica.com/",
    "keyword_found": "libreria juridica"
  },
  {
    "place_id": "ChIJOw8l_nel1pERJPVw8JskO2M",
    "nombre": "ELECTRICA, PAPELERIA Y CYBER \"DANIELA\"",
    "direccion": "Amazonas &, Tena 150101, Ecuador",
    "provincia": "Napo",
    "lat": -0.9907074,
    "lng": -77.81601979999999,
    "rating": null,
    "website": null,
    "keyword_found": "papelería"
  },
  {
    "place_id": "ChIJFweQVZCa1ZERqDdV7GYnHKA",
    "nombre": "Elyon Books | Librería Cristiana ONLINE",
    "direccion": "Punto de Recogida:, José Mora N61-38, Quito 170301, Ecuador",
    "provincia": "Napo",
    "lat": -0.12330239999999998,
    "lng": -78.4976563,
    "rating": 4.6,
    "website": "https://elyonbooks.com/",
    "keyword_found": "librería cristiana"
  },
  {
    "place_id": "ChIJGV8SkZqa1ZERFXI620asIuc",
    "nombre": "LIBRERIA JURIDICA O.N.I.",
    "direccion": "RGH7+2Q2 Edificio complejo judicial norte, Juan José de Villalengua, Quito 170135, Ecuador",
    "provincia": "Napo",
    "lat": -0.1724838,
    "lng": -78.48559519999999,
    "rating": 3,
    "website": null,
    "keyword_found": "librería jurídica"
  },
  {
    "place_id": "ChIJ3SrAa0ek1pERei1Ptp1OI28",
    "nombre": "Libreria & Papeleria Makevin",
    "direccion": "258P+4WF, Av. 15 de Noviembre, Tena, Ecuador",
    "provincia": "Napo",
    "lat": -0.9846924,
    "lng": -77.8127044,
    "rating": null,
    "website": null,
    "keyword_found": "librería"
  },
  {
    "place_id": "ChIJmVA-14aZ1ZER70-HRT4SfvM",
    "nombre": "Libreria Cristiana",
    "direccion": "Centro Comercial Manzana, Av. Simon Bolivar 626, Quito 170209, Ecuador",
    "provincia": "Napo",
    "lat": -0.22246069999999998,
    "lng": -78.5143883,
    "rating": 4.6,
    "website": "https://www.libreriacristianaelrenuevo.es/",
    "keyword_found": "librería cristiana"
  },
  {
    "place_id": "ChIJOcaFluaj1ZERGVfgYiPTFlo",
    "nombre": "Libreria Cristiana Amigos de su Palabra",
    "direccion": "Leonidas Dubles, y, Quito 170709, Ecuador",
    "provincia": "Napo",
    "lat": -0.32768919999999996,
    "lng": -78.54860819999999,
    "rating": 5,
    "website": "https://www.facebook.com/amigosLibreriaCristiana/about",
    "keyword_found": "librería cristiana"
  },
  {
    "place_id": "ChIJMyMfEyCP1ZER_mynKQiHqIU",
    "nombre": "Libreria Cristiana Palabras De Aliento",
    "direccion": "Avenida Capitán Geovanni Calles sn, Quito 170203, Ecuador",
    "provincia": "Napo",
    "lat": -0.0904051,
    "lng": -78.4306246,
    "rating": 4.7,
    "website": null,
    "keyword_found": "librería cristiana"
  },
  {
    "place_id": "ChIJf4ABSYeZ1ZERDkRmYL6cf8Y",
    "nombre": "Libreria La Prensa Católica",
    "direccion": "Calle Benalcazar, San Francisco N2-76, Quito 170401, Ecuador",
    "provincia": "Napo",
    "lat": -0.22174049999999998,
    "lng": -78.51319459999999,
    "rating": 4.7,
    "website": "https://www.laprensacatolica.com/",
    "keyword_found": "librería cristiana"
  },
  {
    "place_id": "ChIJUbZICGGa1ZERpCYbA0xxgB8",
    "nombre": "Libreria New Time",
    "direccion": "RG74+Q7W, Quito 170147, Ecuador",
    "provincia": "Napo",
    "lat": -0.1855107,
    "lng": -78.494286,
    "rating": 4.9,
    "website": "https://www.sehs.ec/",
    "keyword_found": "librería cristiana"
  },
  {
    "place_id": "ChIJRYHMJ5Ca1ZERapGJ6x_JxjA",
    "nombre": "Libreria Realidades",
    "direccion": "Barón de Carondelet, Quito 170521, Ecuador",
    "provincia": "Napo",
    "lat": -0.17376729999999999,
    "lng": -78.4884953,
    "rating": 4.7,
    "website": null,
    "keyword_found": "librería cristiana"
  },
  {
    "place_id": "ChIJ2QmfcYub1ZERRRLm0oYj2gM",
    "nombre": "Libreria Susurros de Bendición",
    "direccion": "C. Guayaquil 404 y, Santo Domingo 230107, Ecuador",
    "provincia": "Napo",
    "lat": -0.2518859,
    "lng": -79.1714246,
    "rating": 4.6,
    "website": "http://www.susurros.ec/",
    "keyword_found": "librería cristiana"
  },
  {
    "place_id": "ChIJn16w1OSB05ERisuGVvSA2gU",
    "nombre": "Librería Bíblica",
    "direccion": "Juan León Mera, Ambato 108103, Ecuador",
    "provincia": "Napo",
    "lat": -1.2412929,
    "lng": -78.62860859999999,
    "rating": 5,
    "website": null,
    "keyword_found": "librería cristiana"
  },
  {
    "place_id": "ChIJKdiMjvbf05ERlbEDKY60xgc",
    "nombre": "Librería Cristiana \"Maranatha\"",
    "direccion": "Juan Leon Mera, Puyo 160150, Ecuador",
    "provincia": "Napo",
    "lat": -1.4770902,
    "lng": -78.0035426,
    "rating": null,
    "website": null,
    "keyword_found": "librería cristiana"
  },
  {
    "place_id": "ChIJHbk8CPOZ1ZERZbUFnvF4XeM",
    "nombre": "Librería Cristiana Betel",
    "direccion": "Av. Morán Valverde, Quito 170702, Ecuador",
    "provincia": "Napo",
    "lat": -0.285808,
    "lng": -78.543255,
    "rating": null,
    "website": null,
    "keyword_found": "librería cristiana"
  },
  {
    "place_id": "ChIJ03Yy6QWZ1ZERPgLgilMK4R8",
    "nombre": "Librería Cristiana Encuentro",
    "direccion": "Avenue Alonso de Angulo &, Quito 170601, Ecuador",
    "provincia": "Napo",
    "lat": -0.24863659999999999,
    "lng": -78.5275788,
    "rating": 4.7,
    "website": null,
    "keyword_found": "librería cristiana"
  },
  {
    "place_id": "ChIJpwWAyHptLZARRCcBULPneBI",
    "nombre": "Librería Cristiana Génesis",
    "direccion": "Mall del Norte, Av. Francisco de Orellana, Guayaquil 090112, Ecuador",
    "provincia": "Napo",
    "lat": -2.0951234,
    "lng": -79.9126655,
    "rating": 4.5,
    "website": "http://www.libreriagenesis.net/",
    "keyword_found": "librería cristiana"
  },
  {
    "place_id": "ChIJbzCY13luLZARaNXRpgGIsi4",
    "nombre": "Librería Cristiana Génesis",
    "direccion": "Francisco García Avilez, Guayaquil 090312, Ecuador",
    "provincia": "Napo",
    "lat": -2.1921011,
    "lng": -79.885548,
    "rating": 4.5,
    "website": "http://www.libreriagenesis.net/",
    "keyword_found": "librería cristiana"
  },
  {
    "place_id": "ChIJ25dn5t-p05ERHYRRduO_4wc",
    "nombre": "Librería Cristiana Pan De Vida",
    "direccion": "Mercado de San Francisco, Riobamba, Ecuador",
    "provincia": "Napo",
    "lat": -1.6749983,
    "lng": -78.6471546,
    "rating": 5,
    "website": null,
    "keyword_found": "librería cristiana"
  },
  {
    "place_id": "ChIJj6NMTSKa1ZERYa1tgI-JXHE",
    "nombre": "Librería Jurídica O.N.I.",
    "direccion": "Avenida 6 de Diciembre Sodiro Edf. Atenas, P.B, Quito 170136, Ecuador",
    "provincia": "Napo",
    "lat": -0.21371869999999998,
    "lng": -78.5006629,
    "rating": 4.1,
    "website": "http://libreriajuridicaoni.online/",
    "keyword_found": "librería jurídica"
  },
  {
    "place_id": "ChIJjxsc6lyp1ZERdiL4mb3jVr0",
    "nombre": "Librería Leeyenda",
    "direccion": "Venezuela 38 y, Machachi 171111, Ecuador",
    "provincia": "Napo",
    "lat": -0.504549,
    "lng": -78.5663444,
    "rating": null,
    "website": null,
    "keyword_found": "librería cristiana"
  },
  {
    "place_id": "ChIJAVhJKgCl1pER9G6f5wKP9Ks",
    "nombre": "Librería y papelería amazonas 2",
    "direccion": "12 de Febrero 354, Tena, Ecuador",
    "provincia": "Napo",
    "lat": -0.9945417,
    "lng": -77.8129153,
    "rating": null,
    "website": null,
    "keyword_found": "librería"
  },
  {
    "place_id": "ChIJL5twelel1pERCsJg1XEeA34",
    "nombre": "Librería y papelería entre papeles Papiros",
    "direccion": "X5XQ+M8C, Tena, Ecuador",
    "provincia": "Napo",
    "lat": -1.0008047,
    "lng": -77.8117336,
    "rating": null,
    "website": null,
    "keyword_found": "librería"
  },
  {
    "place_id": "ChIJpa07tECk1pERgZAEQKioeYc",
    "nombre": "Nity Copias Bazar & Papeleria",
    "direccion": "Tena, Ecuador",
    "provincia": "Napo",
    "lat": -0.9830603,
    "lng": -77.8126609,
    "rating": null,
    "website": null,
    "keyword_found": "papeleria"
  },
  {
    "place_id": "ChIJJ4j63Del1pERkdf6AtkPOIQ",
    "nombre": "Papeleria Compu Click",
    "direccion": "Tena 150101, Ecuador",
    "provincia": "Napo",
    "lat": -0.9920296,
    "lng": -77.8168857,
    "rating": null,
    "website": "https://www.facebook.com/share/1Jh5vX22Kq/",
    "keyword_found": "papelería"
  },
  {
    "place_id": "ChIJ6wTDXral1pER4O7yO4pF1lo",
    "nombre": "Papelería Erika",
    "direccion": "Av. 15 de noviembre y, Tena, Quito, Ecuador",
    "provincia": "Napo",
    "lat": -1.003402,
    "lng": -77.811228,
    "rating": 4.5,
    "website": null,
    "keyword_found": "papelería"
  },
  {
    "place_id": "ChIJs4jlXVOl1pERtdoXHMOgAkM",
    "nombre": "Papelería Mil Novedades",
    "direccion": "Tena 150101, Ecuador",
    "provincia": "Napo",
    "lat": -0.9984395999999999,
    "lng": -77.8131803,
    "rating": null,
    "website": null,
    "keyword_found": "papelería"
  },
  {
    "place_id": "ChIJ274UNt-l1pEROcFgb15jSPE",
    "nombre": "PuntoBB Red Activa WU Mp Bazar Y Papeleria J J E Tena",
    "direccion": "Av. 15 De Noviembre, Diagonal A La Despensa Lupita, Y Sn, Tena, Ecuador",
    "provincia": "Napo",
    "lat": -1.0015402,
    "lng": -77.8114054,
    "rating": null,
    "website": "https://www.bolivariano.com/",
    "keyword_found": "papelería"
  },
  {
    "place_id": "ChIJHfuF2w6l1pERw9_gQH09TWg",
    "nombre": "PuntoBB Red Activa WU Mp Bazar Y Papeleria Santiago Tena",
    "direccion": "Alfredo Pareja, A Dos Cuadras De La Empresa Electrica, Y Sn, Tena, Ecuador",
    "provincia": "Napo",
    "lat": -0.9878439999999999,
    "lng": -77.818247,
    "rating": null,
    "website": "https://www.bolivariano.com/",
    "keyword_found": "papelería"
  },
  {
    "place_id": "ChIJ68zNabil1pER0xnl_sL2bmI",
    "nombre": "PuntoBB Red Activa WU Mp Bazar Y Papeleria Sarela Tena",
    "direccion": "Frente Al Ministerio De Agricultura Y Ganaderia, Simon Bolivar, Tena, Ecuador",
    "provincia": "Napo",
    "lat": -0.9881994999999999,
    "lng": -77.8155369,
    "rating": null,
    "website": "https://www.bolivariano.com/",
    "keyword_found": "papelería"
  },
  {
    "place_id": "ChIJO66HLMOl1pERn00VI_At44A",
    "nombre": "PuntoBB Red Activa WU Mp Papeleria Mareliz Tena",
    "direccion": "Diaz De Pineda, Diagonal A La Coop Tena, Y S/N, Tena, Ecuador",
    "provincia": "Napo",
    "lat": -0.9919572999999998,
    "lng": -77.8131578,
    "rating": null,
    "website": "https://www.bolivariano.com/",
    "keyword_found": "papelería"
  },
  {
    "place_id": "ChIJg4AzHQWl1pERXrKwO-NWVBU",
    "nombre": "PuntoBB Red Activa WU Mp Papeleria Y Cyber Andres Tena",
    "direccion": "Manuel Maria Rosales, Junto Al Pueste Paushuyacu, Y S/N, Tena, Ecuador",
    "provincia": "Napo",
    "lat": -1.0012809999999999,
    "lng": -77.81044399999999,
    "rating": null,
    "website": "https://www.bolivariano.com/",
    "keyword_found": "papelería"
  },
  {
    "place_id": "ChIJjWFXSgCF05ERwSZxb5sKjs4",
    "nombre": "SOLUCIONES BÍBLICAS SUCURSAL PELILEO",
    "direccion": "MFC4+5F4, Av Padre Jorge Chacon, Pelileo, Ecuador",
    "provincia": "Napo",
    "lat": -1.3295838,
    "lng": -78.5438085,
    "rating": 5,
    "website": "https://www.instagram.com/solucionesbiblicas/profilecard/?igsh=MzM2a2pjbjl3bjVv",
    "keyword_found": "librería cristiana"
  },
  {
    "place_id": "ChIJT-AvfCiB05ER9t3PDmw0Ouo",
    "nombre": "Soluciones Bíblicas",
    "direccion": "Mariano Castillo 6-42 entre Cevallos y Juan Benigno Vela junto a Notaría 7 Junto a Notaría 7, Ambato 180101, Ecuador",
    "provincia": "Napo",
    "lat": -1.2438273,
    "lng": -78.6285317,
    "rating": 5,
    "website": "https://www.facebook.com/Soluciones-B%C3%ADblicas-105932784417916",
    "keyword_found": "librería cristiana"
  },
  {
    "place_id": "ChIJ1UW-NhGF1ZEROm4R2pbvOMc",
    "nombre": "TIENDA CRISTIANA NISSI B&L",
    "direccion": "y la, Av. de la Prensa, Quito 170104, Ecuador",
    "provincia": "Napo",
    "lat": -0.1436102,
    "lng": -78.4920704,
    "rating": 5,
    "website": null,
    "keyword_found": "librería cristiana"
  },
  {
    "place_id": "ChIJAQ4UEO3h05ERogPClhoV2Ns",
    "nombre": "Verdad Librería Cristiana",
    "direccion": "Av. Manabi &, Puyo, Ecuador",
    "provincia": "Napo",
    "lat": -1.4843276,
    "lng": -78.0022424,
    "rating": 5,
    "website": "https://www.facebook.com/verdadlibreriacristiana/?ref=pages_you_manage",
    "keyword_found": "librería cristiana"
  }
]